% program   : RTKLIB ver.2.4.3
% inp file  : C:\µº∫Ω\Œ¿–«µº∫Ω\rtklib\DATA\20180919\20180919_rove.18O
% inp file  : C:\µº∫Ω\Œ¿–«µº∫Ω\rtklib\DATA\20180919\20180919_base.18O
% inp file  : C:\µº∫Ω\Œ¿–«µº∫Ω\rtklib\DATA\20180919\D016262I1.18P
% obs start : 2018/09/19 08:13:03.0 GPST (week2019 288783.0s)
% obs end   : 2018/09/19 08:55:05.0 GPST (week2019 291305.0s)
% ref pos   : -2267144.0121   5009469.9405   3221205.4677
%
% (x/y/z-ecef=WGS84,Q=1:fix,2:float,3:sbas,4:dgps,5:single,6:ppp,ns=# of satellites)
%  GPST             x-ecef(m)      y-ecef(m)      z-ecef(m)   Q  ns   sdx(m)   sdy(m)   sdz(m)  sdxy(m)  sdyz(m)  sdzx(m) age(s)  ratio
2019 288783.00  -2267095.3541   5009481.0344   3221195.4753   2   6   0.0025   0.0023   0.0025  -0.0016   0.0002   0.0011   3.00    1.1
2019 288784.00  -2267095.3443   5009481.0285   3221195.4651   2   6   0.0025   0.0022   0.0025  -0.0016   0.0002   0.0011   4.00    1.6
2019 288785.00  -2267095.3244   5009481.0401   3221195.4336   2   6   0.0025   0.0022   0.0025  -0.0016   0.0002   0.0011   5.00    1.2
2019 288786.00  -2267095.3838   5009481.1688   3221195.0779   2   6   0.0025   0.0021   0.0025  -0.0015   0.0002   0.0011   6.00    1.1
2019 288787.00  -2267095.5929   5009481.6185   3221194.3549   2   6   0.0025   0.0021   0.0025  -0.0015   0.0002   0.0011   7.00    1.3
2019 288788.00  -2267096.1519   5009482.3527   3221193.3172   2   5   0.0031   0.0026   0.0024  -0.0021   0.0000   0.0013   8.00    1.2
2019 288789.00  -2267096.2696   5009482.7634   3221192.0924   2   6   0.0024   0.0020   0.0025  -0.0015   0.0001   0.0012   9.00    1.2
2019 288790.00  -2267096.5913   5009483.4880   3221191.0521   2   5   0.0024   0.0020   0.0025  -0.0015   0.0001   0.0012   0.00    1.2
2019 288791.00  -2267095.7449   5009483.2663   3221190.3496   2   4   0.0142   0.0096   0.0056  -0.0107  -0.0036   0.0064   1.00    1.2
2019 288792.00  -2267097.1764   5009484.9287   3221188.6585   2   5   0.0026   0.0025   0.0030  -0.0017   0.0004   0.0011   2.00    1.0
2019 288793.00  -2267097.3392   5009485.3266   3221187.4033   2   5   0.0025   0.0023   0.0027  -0.0016   0.0003   0.0012   3.00    1.0
2019 288794.00  -2267098.6530   5009498.4315   3221193.5697   1   4   0.0846   0.0585   0.0023  -0.0703  -0.0079   0.0099   4.00    4.9
2019 288795.00  -2267097.5319   5009486.2503   3221185.1923   2   5   0.0025   0.0022   0.0026  -0.0016   0.0002   0.0012   5.00    1.0
2019 288796.00  -2267097.5982   5009486.8075   3221184.0603   2   5   0.0025   0.0021   0.0025  -0.0015   0.0002   0.0012   6.00    1.0
2019 288797.00  -2267097.9087   5009487.4900   3221182.8124   2   5   0.0025   0.0021   0.0025  -0.0015   0.0001   0.0012   7.00    1.0
2019 288798.00  -2267098.3246   5009488.2344   3221181.4226   2   5   0.0024   0.0021   0.0025  -0.0015   0.0001   0.0012   8.00    1.0
2019 288799.00  -2267098.6102   5009488.7482   3221180.3435   2   5   0.0024   0.0021   0.0025  -0.0015   0.0001   0.0012   9.00    1.0
2019 288800.00  -2267098.6686   5009489.2872   3221179.1285   2   5   0.0024   0.0021   0.0025  -0.0015   0.0001   0.0012   0.00    1.0
2019 288801.00  -2267099.1821   5009490.0829   3221177.8963   2   5   0.0026   0.0025   0.0031  -0.0017   0.0005   0.0011   1.00    1.1
2019 288802.00  -2267099.5630   5009490.6915   3221176.6454   2   5   0.0026   0.0025   0.0030  -0.0017   0.0004   0.0011   2.00    1.1
2019 288803.00  -2267101.3938   5009504.2118   3221182.3217   1   5   0.0001   0.0002   0.0002  -0.0001   0.0001   0.0000   3.00    3.4
2019 288804.00  -2267101.6651   5009504.9510   3221181.1264   1   5   0.0001   0.0003   0.0003  -0.0001   0.0001   0.0000   4.00    6.5
2019 288805.00  -2267102.0300   5009505.5420   3221179.9125   1   5   0.0001   0.0003   0.0003  -0.0001   0.0002   0.0000   5.00   15.4
2019 288806.00  -2267100.7810   5009493.1884   3221171.0415   2   5   0.0024   0.0021   0.0026  -0.0015   0.0002   0.0011   6.00    2.7
2019 288807.00  -2267101.2425   5009493.7648   3221169.7631   2   5   0.0024   0.0021   0.0025  -0.0015   0.0002   0.0011   7.00    1.7
2019 288808.00  -2267101.6446   5009494.3775   3221168.5818   2   5   0.0024   0.0021   0.0025  -0.0015   0.0002   0.0011   8.00    1.3
2019 288809.00  -2267102.1690   5009495.0250   3221167.2584   2   5   0.0024   0.0020   0.0025  -0.0015   0.0002   0.0011   9.00    1.1
2019 288810.00  -2267104.4111   5009509.0111   3221173.5143   1   5   0.0001   0.0001   0.0002  -0.0001   0.0001  -0.0000   0.00    3.1
2019 288811.00  -2267102.9576   5009496.4949   3221165.2358   2   4   0.0026   0.0027   0.0048  -0.0017   0.0011   0.0007   1.00    1.1
2019 288812.00  -2267103.3421   5009497.0703   3221164.0364   2   4   0.0025   0.0025   0.0044  -0.0017   0.0009   0.0008   2.00    1.1
2019 288813.00  -2267103.8086   5009497.5473   3221162.9015   2   4   0.0025   0.0024   0.0040  -0.0016   0.0008   0.0009   3.00    1.1
2019 288814.00  -2267104.3644   5009498.1203   3221161.8380   2   5   0.0025   0.0023   0.0031  -0.0016   0.0004   0.0010   4.00    1.3
2019 288815.00  -2267104.5801   5009498.9012   3221160.5946   2   5   0.0025   0.0023   0.0034  -0.0016   0.0005   0.0010   5.00    1.1
2019 288816.00  -2267104.8980   5009499.5018   3221159.2600   2   4   0.0024   0.0022   0.0031  -0.0016   0.0004   0.0010   6.00    2.1
2019 288817.00  -2267105.1879   5009500.0744   3221158.0673   2   4   0.0024   0.0021   0.0030  -0.0015   0.0003   0.0010   7.00    2.3
2019 288818.00  -2267105.5602   5009500.7293   3221156.8094   2   4   0.0024   0.0021   0.0028  -0.0015   0.0003   0.0011   8.00    2.4
2019 288819.00  -2267106.1584   5009501.2728   3221155.4973   2   4   0.0024   0.0021   0.0027  -0.0015   0.0003   0.0011   9.00    2.3
2019 288820.00  -2267106.6884   5009501.8676   3221154.2567   2   4   0.0024   0.0021   0.0027  -0.0015   0.0002   0.0011   0.00    2.6
2019 288821.00  -2267107.1911   5009502.4902   3221153.2260   2   5   0.0026   0.0026   0.0047  -0.0017   0.0011   0.0007   1.00    2.6
2019 288822.00  -2267107.8010   5009503.0403   3221151.9733   2   4   0.0025   0.0025   0.0043  -0.0017   0.0009   0.0008   2.00    2.7
2019 288823.00  -2267108.5705   5009503.4889   3221150.7142   2   4   0.0025   0.0024   0.0040  -0.0016   0.0007   0.0009   3.00    2.8
2019 288824.00  -2267109.3182   5009503.8173   3221149.5680   2   4   0.0025   0.0023   0.0036  -0.0016   0.0006   0.0009   4.00    2.9
2019 288825.00  -2267110.0945   5009504.1951   3221148.3526   2   4   0.0025   0.0023   0.0033  -0.0016   0.0005   0.0010   5.00    3.0
2019 288826.00  -2267112.8042   5009517.5949   3221154.1271   1   4   0.0001   0.0005   0.0017  -0.0002   0.0007  -0.0002   6.00    3.1
2019 288827.00  -2267113.6526   5009517.8251   3221153.0927   1   4   0.0002   0.0006   0.0021  -0.0002   0.0008  -0.0003   7.00    3.3
2019 288828.00  -2267114.4959   5009518.1908   3221152.0256   1   4   0.0002   0.0007   0.0026  -0.0002   0.0010  -0.0004   8.00    3.4
2019 288829.00  -2267115.3257   5009518.5753   3221150.9292   1   5   0.0002   0.0008   0.0031  -0.0003   0.0012  -0.0005   9.00    3.4
2019 288830.00  -2267116.1251   5009518.7817   3221149.8620   1   5   0.0001   0.0002   0.0006  -0.0001   0.0002  -0.0001   0.00    3.6
2019 288831.00  -2267116.9923   5009518.8726   3221149.0412   1   5   0.0001   0.0002   0.0004  -0.0001   0.0002  -0.0000   1.00    3.7
2019 288832.00  -2267117.0936   5009518.8780   3221148.8410   1   5   0.0001   0.0002   0.0004  -0.0001   0.0002  -0.0000   2.00    3.7
2019 288833.00  -2267117.0760   5009518.8929   3221148.8467   1   5   0.0001   0.0002   0.0004  -0.0001   0.0002  -0.0000   3.00    3.7
2019 288834.00  -2267117.2255   5009519.1439   3221148.4383   1   5   0.0001   0.0002   0.0005  -0.0001   0.0002  -0.0000   4.00    3.7
2019 288835.00  -2267117.7820   5009519.3910   3221147.7595   1   5   0.0001   0.0003   0.0005  -0.0001   0.0003  -0.0001   5.00    3.8
2019 288836.00  -2267118.8707   5009519.6994   3221146.6746   1   5   0.0001   0.0004   0.0006  -0.0001   0.0003  -0.0001   6.00    3.9
2019 288837.00  -2267120.1445   5009519.8027   3221145.6481   1   5   0.0001   0.0004   0.0007  -0.0001   0.0004  -0.0001   7.00    3.9
2019 288838.00  -2267121.3722   5009519.8225   3221144.7244   1   5   0.0001   0.0005   0.0009  -0.0001   0.0005  -0.0001   8.00    3.9
2019 288839.00  -2267122.6037   5009519.7695   3221143.8651   1   5   0.0002   0.0006   0.0009  -0.0002   0.0005  -0.0001   9.00    3.5
2019 288840.00  -2267123.8833   5009519.8211   3221142.9007   1   5   0.0001   0.0001   0.0002  -0.0000   0.0001  -0.0000   0.00    3.5
2019 288841.00  -2267125.2981   5009519.8108   3221141.9343   1   5   0.0001   0.0001   0.0002  -0.0000   0.0001  -0.0000   1.00    3.7
2019 288842.00  -2267126.4379   5009519.8532   3221141.1051   1   5   0.0001   0.0002   0.0003  -0.0000   0.0001  -0.0000   2.00    3.6
2019 288843.00  -2267127.6330   5009519.7923   3221140.3392   1   5   0.0001   0.0002   0.0003  -0.0001   0.0002  -0.0000   3.00    3.7
2019 288844.00  -2267128.8827   5009519.6643   3221139.5734   1   5   0.0001   0.0002   0.0004  -0.0001   0.0002  -0.0000   4.00    3.7
2019 288845.00  -2267130.1078   5009519.5973   3221138.8797   1   5   0.0001   0.0004   0.0014  -0.0001   0.0005  -0.0002   5.00    3.6
2019 288846.00  -2267131.2411   5009519.5376   3221138.2264   1   5   0.0001   0.0005   0.0017  -0.0002   0.0007  -0.0002   6.00    3.4
2019 288847.00  -2267132.5617   5009519.4953   3221137.4082   1   5   0.0001   0.0005   0.0012  -0.0001   0.0005  -0.0002   7.00    3.3
2019 288848.00  -2267133.9926   5009519.5004   3221136.3900   1   5   0.0002   0.0005   0.0011  -0.0002   0.0005  -0.0001   8.00    3.2
2019 288849.00  -2267135.1149   5009519.3945   3221135.8023   1   5   0.0002   0.0006   0.0013  -0.0002   0.0006  -0.0002   9.00    3.2
2019 288850.00  -2267136.1796   5009519.4069   3221135.0615   1   5   0.0001   0.0002   0.0004  -0.0001   0.0002  -0.0000   0.00    3.1
2019 288851.00  -2267135.5570   5009506.4586   3221127.3707   2   5   0.0025   0.0024   0.0026  -0.0016   0.0004   0.0011   1.00    2.9
2019 288852.00  -2267136.9185   5009506.1674   3221126.7942   2   5   0.0025   0.0024   0.0025  -0.0016   0.0003   0.0011   2.00    2.8
2019 288853.00  -2267138.2485   5009505.7703   3221126.3003   2   5   0.0025   0.0023   0.0024  -0.0016   0.0003   0.0011   3.00    2.7
2019 288854.00  -2267139.7299   5009505.3887   3221125.7937   2   5   0.0025   0.0022   0.0024  -0.0016   0.0002   0.0011   4.00    2.6
2019 288855.00  -2267141.1141   5009504.8919   3221125.4287   2   5   0.0025   0.0022   0.0023  -0.0016   0.0002   0.0011   5.00    2.5
2019 288856.00  -2267142.5392   5009504.3769   3221125.1037   2   5   0.0024   0.0021   0.0023  -0.0016   0.0001   0.0011   6.00    2.6
2019 288857.00  -2267145.8398   5009516.8714   3221131.8645   1   5   0.0001   0.0004   0.0004  -0.0001   0.0003  -0.0000   7.00    3.4
2019 288858.00  -2267147.2471   5009516.5653   3221131.4798   1   5   0.0001   0.0005   0.0005  -0.0001   0.0004  -0.0000   8.00    3.5
2019 288859.00  -2267148.5118   5009516.1652   3221131.2006   1   5   0.0002   0.0006   0.0006  -0.0002   0.0004  -0.0000   9.00    3.6
2019 288860.00  -2267149.7129   5009515.8595   3221130.8120   1   5   0.0000   0.0001   0.0002  -0.0000   0.0001  -0.0000   0.00    3.7
2019 288861.00  -2267151.1728   5009515.3770   3221130.5985   1   5   0.0000   0.0001   0.0002  -0.0000   0.0001  -0.0000   1.00    3.7
2019 288862.00  -2267152.6358   5009514.8480   3221130.4048   1   5   0.0001   0.0002   0.0002  -0.0000   0.0001  -0.0000   2.00    4.2
2019 288863.00  -2267153.9717   5009514.3231   3221130.2740   1   5   0.0001   0.0002   0.0002  -0.0001   0.0001  -0.0000   3.00    4.5
2019 288864.00  -2267155.3078   5009513.7119   3221130.2724   1   5   0.0001   0.0002   0.0002  -0.0001   0.0002  -0.0000   4.00    4.7
2019 288865.00  -2267156.8484   5009513.0326   3221130.3104   1   5   0.0001   0.0003   0.0003  -0.0001   0.0002  -0.0000   5.00    5.1
2019 288866.00  -2267158.2406   5009512.3230   3221130.4247   1   5   0.0001   0.0003   0.0004  -0.0001   0.0002  -0.0000   6.00    5.1
2019 288867.00  -2267159.5473   5009511.6359   3221130.4339   1   5   0.0001   0.0004   0.0004  -0.0001   0.0003  -0.0000   7.00    5.2
2019 288868.00  -2267160.7377   5009511.0746   3221130.4431   1   5   0.0001   0.0005   0.0005  -0.0001   0.0004  -0.0000   8.00    5.4
2019 288869.00  -2267161.8898   5009510.4171   3221130.5542   1   5   0.0002   0.0006   0.0006  -0.0002   0.0004  -0.0000   9.00    5.4
2019 288870.00  -2267163.0227   5009509.7807   3221130.8787   1   5   0.0000   0.0001   0.0001  -0.0000   0.0001  -0.0000   0.00    5.4
2019 288871.00  -2267164.2804   5009509.0742   3221131.0100   1   5   0.0001   0.0001   0.0002  -0.0000   0.0001  -0.0000   1.00    5.6
2019 288872.00  -2267165.6045   5009508.3906   3221131.1818   1   5   0.0001   0.0002   0.0002  -0.0000   0.0001  -0.0000   2.00    5.8
2019 288873.00  -2267166.7287   5009507.6746   3221131.4742   1   5   0.0001   0.0002   0.0002  -0.0001   0.0001  -0.0000   3.00    5.9
2019 288874.00  -2267167.2790   5009507.2994   3221131.6647   1   5   0.0001   0.0002   0.0002  -0.0001   0.0002  -0.0000   4.00    5.7
2019 288875.00  -2267167.2836   5009507.3448   3221131.5764   1   5   0.0001   0.0003   0.0003  -0.0001   0.0002  -0.0000   5.00    5.7
2019 288876.00  -2267167.2629   5009507.3639   3221131.5218   1   5   0.0001   0.0003   0.0004  -0.0001   0.0002  -0.0000   6.00    5.7
2019 288877.00  -2267167.4767   5009507.3023   3221131.5005   1   5   0.0001   0.0004   0.0004  -0.0001   0.0003  -0.0000   7.00    5.7
2019 288878.00  -2267168.3880   5009506.9040   3221131.8487   1   5   0.0001   0.0005   0.0008  -0.0001   0.0004  -0.0001   8.00    4.1
2019 288879.00  -2267169.4979   5009506.1443   3221132.0643   1   5   0.0002   0.0006   0.0006  -0.0002   0.0004  -0.0000   9.00    5.6
2019 288880.00  -2267170.5721   5009505.3677   3221132.5223   1   5   0.0000   0.0001   0.0001  -0.0000   0.0001  -0.0000   0.00    5.1
2019 288881.00  -2267171.8276   5009504.5282   3221132.9753   1   5   0.0000   0.0001   0.0002  -0.0000   0.0001  -0.0000   1.00    5.0
2019 288882.00  -2267172.8874   5009503.7248   3221133.4227   1   5   0.0001   0.0002   0.0002  -0.0000   0.0001  -0.0000   2.00    5.0
2019 288883.00  -2267173.9205   5009502.9044   3221133.9860   1   5   0.0001   0.0002   0.0002  -0.0001   0.0001  -0.0000   3.00    5.1
2019 288884.00  -2267174.8492   5009502.1417   3221134.4195   1   5   0.0001   0.0002   0.0002  -0.0001   0.0002  -0.0000   4.00    5.3
2019 288885.00  -2267176.0096   5009501.2489   3221135.0030   1   5   0.0001   0.0003   0.0003  -0.0001   0.0002  -0.0000   5.00    5.2
2019 288886.00  -2267177.1014   5009500.2657   3221135.6749   1   5   0.0001   0.0003   0.0004  -0.0001   0.0002  -0.0000   6.00    5.1
2019 288887.00  -2267177.9587   5009499.4634   3221136.2929   1   5   0.0001   0.0004   0.0004  -0.0001   0.0003  -0.0000   7.00    5.0
2019 288888.00  -2267178.8575   5009498.6033   3221136.9425   1   5   0.0001   0.0005   0.0005  -0.0001   0.0004  -0.0000   8.00    5.0
2019 288889.00  -2267178.7793   5009487.4300   3221131.9665   2   5   0.0001   0.0002   0.0002  -0.0001   0.0001   0.0001   9.00    5.0
2019 288890.00  -2267180.2522   5009492.1037   3221135.8384   2   5   0.0000   0.0001   0.0001  -0.0000   0.0000   0.0000   0.00    5.1
2019 288891.00  -2267181.5105   5009493.9818   3221138.0227   2   5   0.0000   0.0001   0.0001  -0.0000   0.0001   0.0000   1.00    5.5
2019 288892.00  -2267182.2507   5009492.6184   3221138.5755   2   5   0.0001   0.0001   0.0001  -0.0000   0.0001   0.0000   2.00    5.8
2019 288893.00  -2267182.8020   5009491.2217   3221138.9984   2   5   0.0001   0.0001   0.0001  -0.0000   0.0001   0.0000   3.00    6.2
2019 288894.00  -2267183.2793   5009489.8310   3221139.3146   2   5   0.0001   0.0002   0.0002  -0.0000   0.0001   0.0000   4.00    6.6
2019 288895.00  -2267184.0150   5009488.5959   3221140.0328   2   5   0.0001   0.0002   0.0002  -0.0001   0.0001   0.0000   5.00    6.9
2019 288896.00  -2267184.7252   5009488.0387   3221141.0510   2   5   0.0001   0.0002   0.0002  -0.0001   0.0001   0.0000   6.00    7.1
2019 288897.00  -2267185.7944   5009490.7194   3221143.9037   1   5   0.0001   0.0005   0.0005  -0.0001   0.0004  -0.0000   7.00    4.4
2019 288898.00  -2267186.5256   5009489.7847   3221144.8059   1   5   0.0001   0.0006   0.0006  -0.0001   0.0005  -0.0000   8.00    4.4
2019 288899.00  -2267184.8686   5009475.6639   3221139.1001   2   5   0.0019   0.0021   0.0016  -0.0015   0.0002   0.0006   9.00    1.4
2019 288900.00  -2267185.4612   5009474.8819   3221140.0868   2   5   0.0019   0.0020   0.0016  -0.0014   0.0002   0.0005   0.00    1.4
2019 288901.00  -2267185.7004   5009474.3687   3221141.8297   2   5   0.0024   0.0027   0.0021  -0.0018   0.0004   0.0007   1.00    2.1
2019 288902.00  -2267186.3936   5009473.3861   3221142.5401   2   6   0.0022   0.0025   0.0018  -0.0017   0.0003   0.0006   2.00    2.0
2019 288903.00  -2267186.8538   5009472.4105   3221143.6173   2   6   0.0021   0.0024   0.0019  -0.0016   0.0003   0.0006   3.00    2.0
2019 288904.00  -2267187.3766   5009471.4143   3221144.5868   2   5   0.0021   0.0023   0.0018  -0.0016   0.0003   0.0006   4.00    2.0
2019 288905.00  -2267188.1653   5009477.5008   3221149.4296   2   4   0.0017   0.0009   0.0013  -0.0007  -0.0002   0.0013   5.00   18.5
2019 288906.00  -2267188.5129   5009475.5905   3221149.6608   2   4   0.0017   0.0009   0.0013  -0.0007  -0.0002   0.0013   6.00   18.2
2019 288907.00  -2267187.8449   5009468.9551   3221148.4641   2   5   0.0020   0.0022   0.0017  -0.0015   0.0002   0.0006   7.00    1.9
2019 288908.00  -2267188.0226   5009468.1213   3221149.7009   2   5   0.0021   0.0022   0.0015  -0.0016   0.0002   0.0006   8.00    1.8
2019 288909.00  -2267188.5315   5009467.4243   3221150.6032   2   5   0.0024   0.0023   0.0016  -0.0018   0.0000   0.0008   9.00    1.6
2019 288910.00  -2267189.9396   5009478.8924   3221158.9940   1   4   0.0044   0.0012   0.0027  -0.0016  -0.0009   0.0033   0.00    4.8
2019 288911.00  -2267189.6873   5009467.7489   3221152.7149   2   5   0.0035   0.0033   0.0026  -0.0026  -0.0002   0.0015   1.00    1.1
2019 288912.00  -2267189.5892   5009466.7410   3221153.7415   2   4   0.0030   0.0029   0.0028  -0.0022  -0.0001   0.0014   2.00    1.2
2019 288913.00  -2267190.3786   5009477.9058   3221162.6773   1   4   0.5093   0.0819   0.2721  -0.2032  -0.1479   0.3719   3.00    6.0
2019 288914.00  -2267189.0587   5009465.3829   3221156.5910   2   5   0.0053   0.0041   0.0028  -0.0040  -0.0011   0.0024   4.00    1.1
2019 288915.00  -2267185.3452   5009461.8544   3221160.5305   2   4   0.0013   0.0020   0.0012  -0.0012   0.0007  -0.0001   5.00    1.4
2019 288916.00  -2267185.3409   5009461.4871   3221161.3233   2   5   0.0013   0.0019   0.0011  -0.0011   0.0006  -0.0001   6.00    1.2
2019 288917.00  -2267186.1111   5009461.7823   3221162.2729   2   5   0.0013   0.0019   0.0011  -0.0011   0.0006  -0.0001   7.00    1.5
2019 288918.00  -2267186.1495   5009461.4220   3221163.5429   2   5   0.0012   0.0018   0.0010  -0.0011   0.0006  -0.0001   8.00    1.7
2019 288919.00  -2267185.9490   5009460.9745   3221164.8553   2   5   0.0012   0.0018   0.0010  -0.0010   0.0006  -0.0001   9.00    2.0
2019 288920.00  -2267190.3248   5009474.3473   3221171.0291   1   4   0.0059   0.0014   0.0035  -0.0023  -0.0013   0.0043   0.00    5.5
2019 288921.00  -2267187.3154   5009473.8611   3221174.8042   1   5   0.0014   0.0009   0.0006  -0.0010  -0.0005   0.0008   1.00    3.4
2019 288922.00  -2267185.8591   5009472.6146   3221176.7569   1   5   0.0011   0.0008   0.0005  -0.0008  -0.0003   0.0006   2.00    5.0
2019 288923.00  -2267184.4416   5009460.1307   3221170.7512   2   5   0.0012   0.0020   0.0013  -0.0010   0.0008  -0.0001   3.00    1.8
2019 288924.00  -2267183.9162   5009460.7915   3221173.3420   2   5   0.0012   0.0020   0.0010  -0.0010   0.0006  -0.0001   4.00    1.6
2019 288925.00  -2267183.8887   5009458.7654   3221173.3008   2   4   0.0013   0.0024   0.0015  -0.0008   0.0011   0.0001   5.00    1.7
2019 288926.00  -2267183.1219   5009458.0647   3221174.4379   2   4   0.0012   0.0019   0.0011  -0.0010   0.0006  -0.0001   6.00    2.1
2019 288927.00  -2267182.7682   5009457.3362   3221175.7671   2   4   0.0012   0.0018   0.0011  -0.0010   0.0006  -0.0001   7.00    2.6
2019 288928.00  -2267182.1348   5009457.0632   3221177.7805   2   6   0.0012   0.0018   0.0009  -0.0010   0.0005  -0.0001   8.00    1.5
2019 288929.00  -2267182.4076   5009455.8853   3221178.2221   2   4   0.0012   0.0020   0.0012  -0.0009   0.0008  -0.0000   9.00    2.3
2019 288930.00  -2267181.2538   5009456.0658   3221180.1272   2   5   0.0012   0.0017   0.0009  -0.0010   0.0005  -0.0001   0.00    1.4
2019 288931.00  -2267180.9954   5009456.0766   3221181.7830   2   6   0.0012   0.0021   0.0011  -0.0011   0.0007  -0.0002   1.00    2.5
2019 288932.00  -2267180.5735   5009455.3661   3221182.9304   2   6   0.0012   0.0020   0.0011  -0.0011   0.0007  -0.0002   2.00    1.8
2019 288933.00  -2267180.2113   5009454.5769   3221184.1175   2   5   0.0012   0.0020   0.0011  -0.0011   0.0007  -0.0002   3.00    2.0
2019 288934.00  -2267180.1360   5009453.8832   3221185.3431   2   5   0.0012   0.0019   0.0010  -0.0011   0.0006  -0.0002   4.00    1.3
2019 288935.00  -2267179.8475   5009453.0652   3221186.5601   2   5   0.0012   0.0019   0.0010  -0.0010   0.0006  -0.0002   5.00    1.1
2019 288936.00  -2267179.4741   5009452.4369   3221187.7364   2   5   0.0012   0.0018   0.0010  -0.0010   0.0006  -0.0001   6.00    1.3
2019 288937.00  -2267178.8724   5009452.8891   3221189.0451   2   4   0.0012   0.0021   0.0013  -0.0009   0.0009   0.0000   7.00    1.5
2019 288938.00  -2267178.8021   5009451.5905   3221189.0139   2   5   0.0012   0.0018   0.0009  -0.0010   0.0005  -0.0001   8.00    1.3
2019 288939.00  -2267178.7917   5009451.3015   3221189.2693   2   6   0.0012   0.0017   0.0009  -0.0010   0.0005  -0.0001   9.00    1.1
2019 288940.00  -2267178.7950   5009451.2425   3221189.8266   2   5   0.0012   0.0017   0.0009  -0.0010   0.0005  -0.0001   0.00    1.6
2019 288941.00  -2267178.6482   5009451.3792   3221190.6227   2   6   0.0012   0.0021   0.0011  -0.0011   0.0007  -0.0002   1.00    1.1
2019 288942.00  -2267178.6274   5009450.8600   3221191.4412   2   6   0.0012   0.0020   0.0011  -0.0011   0.0007  -0.0002   2.00    1.5
2019 288943.00  -2267178.5592   5009450.1249   3221192.4514   2   6   0.0012   0.0019   0.0010  -0.0010   0.0006  -0.0001   3.00    1.1
2019 288944.00  -2267178.1923   5009449.6051   3221193.3747   2   6   0.0012   0.0018   0.0010  -0.0010   0.0006  -0.0001   4.00    1.3
2019 288945.00  -2267177.3437   5009449.3682   3221194.0042   2   6   0.0012   0.0018   0.0010  -0.0010   0.0006  -0.0001   5.00    1.6
2019 288946.00  -2267176.4118   5009449.4829   3221194.4430   2   6   0.0012   0.0017   0.0009  -0.0010   0.0006  -0.0001   6.00    1.3
2019 288947.00  -2267175.4997   5009449.7236   3221194.7815   2   6   0.0012   0.0017   0.0010  -0.0010   0.0006  -0.0001   7.00    1.4
2019 288948.00  -2267174.5363   5009449.7207   3221195.2191   2   6   0.0012   0.0017   0.0010  -0.0010   0.0006  -0.0001   8.00    1.1
2019 288949.00  -2267173.7063   5009449.7374   3221195.4120   2   5   0.0012   0.0017   0.0010  -0.0010   0.0006  -0.0001   9.00    1.1
2019 288950.00  -2267173.2664   5009449.5844   3221194.9376   2   6   0.0011   0.0017   0.0009  -0.0010   0.0005  -0.0001   0.00    1.2
2019 288951.00  -2267172.6553   5009450.3950   3221195.6071   2   6   0.0012   0.0021   0.0010  -0.0011   0.0007  -0.0002   1.00    1.9
2019 288952.00  -2267172.1751   5009448.9841   3221196.2570   2   6   0.0012   0.0019   0.0010  -0.0011   0.0006  -0.0002   2.00    2.5
2019 288953.00  -2267171.8524   5009448.3053   3221196.9436   2   5   0.0012   0.0019   0.0012  -0.0010   0.0007  -0.0001   3.00    2.4
2019 288954.00  -2267171.6991   5009447.7525   3221198.2274   2   6   0.0012   0.0018   0.0009  -0.0010   0.0006  -0.0001   4.00    1.3
2019 288955.00  -2267171.6070   5009447.0401   3221199.3411   2   6   0.0012   0.0018   0.0009  -0.0010   0.0005  -0.0001   5.00    2.1
2019 288956.00  -2267171.3442   5009446.5746   3221200.5834   2   6   0.0012   0.0017   0.0009  -0.0010   0.0005  -0.0001   6.00    1.4
2019 288957.00  -2267171.1726   5009446.0789   3221201.8178   2   6   0.0012   0.0017   0.0009  -0.0010   0.0005  -0.0001   7.00    1.1
2019 288958.00  -2267170.8074   5009445.7564   3221203.1319   2   6   0.0012   0.0017   0.0009  -0.0010   0.0005  -0.0001   8.00    1.8
2019 288959.00  -2267170.4769   5009446.5523   3221204.7676   2   5   0.0012   0.0017   0.0009  -0.0010   0.0005  -0.0001   9.00    1.0
2019 288960.00  -2267170.5085   5009445.0834   3221205.2764   2   5   0.0012   0.0017   0.0009  -0.0010   0.0005  -0.0001   0.00    1.3
2019 288961.00  -2267170.3976   5009445.6527   3221207.3602   2   6   0.0012   0.0020   0.0010  -0.0011   0.0006  -0.0002   1.00    1.6
2019 288962.00  -2267170.3405   5009456.3745   3221215.2958   1   6   0.0001   0.0002   0.0001  -0.0001   0.0001  -0.0000   2.00    3.7
2019 288963.00  -2267169.7243   5009444.4723   3221209.6950   2   6   0.0012   0.0019   0.0009  -0.0011   0.0006  -0.0001   3.00    1.5
2019 288964.00  -2267169.4276   5009443.9913   3221210.9174   2   6   0.0012   0.0018   0.0009  -0.0010   0.0006  -0.0001   4.00    1.9
2019 288965.00  -2267169.1510   5009444.1028   3221212.3981   2   5   0.0012   0.0018   0.0009  -0.0010   0.0006  -0.0001   5.00    1.1
2019 288966.00  -2267168.8970   5009442.8331   3221213.4431   2   6   0.0012   0.0017   0.0009  -0.0010   0.0005  -0.0001   6.00    1.0
2019 288967.00  -2267168.5861   5009442.1998   3221214.7542   2   6   0.0012   0.0017   0.0009  -0.0010   0.0005  -0.0001   7.00    1.7
2019 288968.00  -2267168.2968   5009441.6851   3221216.2063   2   6   0.0012   0.0017   0.0009  -0.0010   0.0005  -0.0001   8.00    1.2
2019 288969.00  -2267168.1032   5009441.2488   3221217.6197   2   6   0.0012   0.0017   0.0009  -0.0010   0.0005  -0.0001   9.00    1.9
2019 288970.00  -2267167.9040   5009441.0623   3221219.1826   2   5   0.0012   0.0017   0.0009  -0.0010   0.0005  -0.0001   0.00    1.8
2019 288971.00  -2267167.7458   5009441.1133   3221220.8416   2   6   0.0012   0.0020   0.0010  -0.0011   0.0007  -0.0001   1.00    1.1
2019 288972.00  -2267167.8106   5009440.1880   3221222.0689   2   6   0.0012   0.0019   0.0010  -0.0011   0.0006  -0.0001   2.00    2.0
2019 288973.00  -2267168.2216   5009439.3119   3221223.2563   2   6   0.0012   0.0019   0.0010  -0.0011   0.0006  -0.0001   3.00    1.2
2019 288974.00  -2267168.5447   5009438.3907   3221224.5229   2   6   0.0012   0.0019   0.0011  -0.0010   0.0006  -0.0001   4.00    2.9
2019 288975.00  -2267168.6830   5009437.4133   3221225.6127   2   5   0.0012   0.0018   0.0010  -0.0010   0.0006  -0.0001   5.00    1.8
2019 288976.00  -2267168.5452   5009437.6093   3221227.3785   2   5   0.0012   0.0018   0.0009  -0.0010   0.0005  -0.0001   6.00    1.1
2019 288977.00  -2267168.0116   5009436.5833   3221228.6520   2   6   0.0012   0.0017   0.0009  -0.0010   0.0005  -0.0001   7.00    1.5
2019 288978.00  -2267167.4403   5009436.2627   3221230.1339   2   6   0.0012   0.0017   0.0009  -0.0010   0.0005  -0.0001   8.00    1.0
2019 288979.00  -2267167.0325   5009435.8532   3221231.6112   2   6   0.0012   0.0017   0.0009  -0.0010   0.0005  -0.0001   9.00    1.5
2019 288980.00  -2267166.3344   5009436.1569   3221234.4002   2   6   0.0012   0.0017   0.0008  -0.0010   0.0005  -0.0001   0.00    1.3
2019 288981.00  -2267166.4365   5009435.6886   3221234.9759   2   5   0.0013   0.0021   0.0013  -0.0011   0.0008  -0.0001   1.00    1.0
2019 288982.00  -2267165.8665   5009435.1128   3221236.2914   2   5   0.0012   0.0020   0.0012  -0.0011   0.0007  -0.0001   2.00    1.0
2019 288983.00  -2267165.0208   5009435.9719   3221238.8047   2   5   0.0012   0.0020   0.0009  -0.0011   0.0006  -0.0002   3.00    1.0
2019 288984.00  -2267164.4796   5009434.4240   3221239.8408   2   6   0.0012   0.0018   0.0009  -0.0011   0.0005  -0.0001   4.00    1.2
2019 288985.00  -2267163.9127   5009434.0220   3221241.2688   2   6   0.0012   0.0018   0.0008  -0.0011   0.0005  -0.0001   5.00    1.6
2019 288986.00  -2267163.3583   5009433.4540   3221242.5536   2   6   0.0012   0.0017   0.0008  -0.0011   0.0005  -0.0001   6.00    1.2
2019 288987.00  -2267162.8045   5009433.6641   3221244.0504   2   5   0.0012   0.0018   0.0008  -0.0010   0.0005  -0.0001   7.00    1.0
2019 288988.00  -2267162.0981   5009432.5009   3221245.0626   2   6   0.0012   0.0017   0.0008  -0.0010   0.0005  -0.0001   8.00    1.0
2019 288989.00  -2267161.4230   5009432.1140   3221246.4265   2   6   0.0012   0.0017   0.0008  -0.0010   0.0005  -0.0001   9.00    1.2
2019 288990.00  -2267160.9308   5009432.3664   3221247.9409   2   5   0.0012   0.0017   0.0008  -0.0010   0.0005  -0.0001   0.00    1.0
2019 288991.00  -2267160.0506   5009432.0160   3221249.2102   2   6   0.0012   0.0019   0.0009  -0.0011   0.0006  -0.0002   1.00    1.1
2019 288992.00  -2267159.1432   5009431.5338   3221250.5020   2   6   0.0012   0.0019   0.0009  -0.0011   0.0005  -0.0002   2.00    1.1
2019 288993.00  -2267158.1571   5009431.0076   3221251.7628   2   6   0.0012   0.0018   0.0009  -0.0011   0.0005  -0.0002   3.00    1.4
2019 288994.00  -2267157.1702   5009430.4534   3221252.9424   2   6   0.0012   0.0018   0.0008  -0.0011   0.0005  -0.0002   4.00    1.7
2019 288995.00  -2267153.4508   5009435.0770   3221256.3347   1   6   0.0001   0.0003   0.0001  -0.0002   0.0001  -0.0000   5.00    3.4
2019 288996.00  -2267155.1220   5009429.5322   3221255.2741   2   6   0.0012   0.0018   0.0008  -0.0011   0.0005  -0.0001   6.00    1.6
2019 288997.00  -2267154.1287   5009428.9922   3221256.3847   2   6   0.0012   0.0017   0.0008  -0.0011   0.0005  -0.0001   7.00    1.0
2019 288998.00  -2267153.1026   5009428.7366   3221257.4793   2   6   0.0012   0.0017   0.0008  -0.0011   0.0005  -0.0001   8.00    1.0
2019 288999.00  -2267152.0531   5009428.4488   3221258.5614   2   6   0.0012   0.0017   0.0008  -0.0011   0.0005  -0.0001   9.00    1.0
2019 289000.00  -2267150.9071   5009428.2018   3221259.5225   2   6   0.0012   0.0017   0.0008  -0.0010   0.0005  -0.0001   0.00    1.2
2019 289001.00  -2267149.6718   5009428.2918   3221260.5032   2   6   0.0012   0.0019   0.0009  -0.0011   0.0006  -0.0002   1.00    1.1
2019 289002.00  -2267148.4451   5009428.2139   3221261.2903   2   6   0.0012   0.0018   0.0009  -0.0011   0.0005  -0.0002   2.00    1.5
2019 289003.00  -2267147.2787   5009428.1404   3221262.2064   2   6   0.0012   0.0018   0.0009  -0.0011   0.0005  -0.0002   3.00    1.2
2019 289004.00  -2267146.1391   5009427.9880   3221263.1310   2   6   0.0012   0.0018   0.0008  -0.0011   0.0005  -0.0002   4.00    1.3
2019 289005.00  -2267144.9359   5009427.8395   3221264.0096   2   6   0.0012   0.0018   0.0008  -0.0011   0.0005  -0.0002   5.00    1.1
2019 289006.00  -2267143.6669   5009427.8122   3221264.8188   2   6   0.0012   0.0017   0.0008  -0.0011   0.0005  -0.0001   6.00    1.3
2019 289007.00  -2267142.4130   5009427.8582   3221265.5317   2   6   0.0012   0.0017   0.0008  -0.0011   0.0005  -0.0001   7.00    1.1
2019 289008.00  -2267141.0969   5009428.0564   3221266.1718   2   6   0.0012   0.0017   0.0008  -0.0011   0.0005  -0.0001   8.00    1.1
2019 289009.00  -2267139.8446   5009428.2045   3221266.7994   2   6   0.0012   0.0017   0.0008  -0.0011   0.0005  -0.0001   9.00    1.2
2019 289010.00  -2267138.5277   5009428.4073   3221267.4615   2   6   0.0012   0.0017   0.0008  -0.0010   0.0005  -0.0001   0.00    1.2
2019 289011.00  -2267137.1127   5009428.7311   3221268.1316   2   6   0.0012   0.0019   0.0009  -0.0011   0.0006  -0.0002   1.00    1.0
2019 289012.00  -2267135.5147   5009429.1175   3221268.8354   2   6   0.0012   0.0019   0.0009  -0.0011   0.0005  -0.0002   2.00    1.1
2019 289013.00  -2267134.5256   5009429.1942   3221269.2660   2   6   0.0012   0.0018   0.0008  -0.0011   0.0005  -0.0002   3.00    1.0
2019 289014.00  -2267134.5058   5009429.2354   3221269.1671   2   6   0.0012   0.0018   0.0008  -0.0011   0.0005  -0.0002   4.00    1.0
2019 289015.00  -2267134.5280   5009429.1873   3221269.1737   2   6   0.0012   0.0018   0.0008  -0.0011   0.0005  -0.0002   5.00    1.1
2019 289016.00  -2267134.4722   5009429.1554   3221269.2476   2   6   0.0012   0.0018   0.0008  -0.0011   0.0005  -0.0002   6.00    1.3
2019 289017.00  -2267133.9956   5009429.3460   3221269.5468   2   6   0.0012   0.0017   0.0008  -0.0011   0.0005  -0.0002   7.00    1.3
2019 289018.00  -2267132.8992   5009429.4394   3221269.6862   2   6   0.0012   0.0017   0.0008  -0.0011   0.0005  -0.0002   8.00    1.4
2019 289019.00  -2267131.5627   5009429.7120   3221270.0410   2   6   0.0012   0.0018   0.0008  -0.0011   0.0005  -0.0002   9.00    1.5
2019 289020.00  -2267130.0935   5009429.8822   3221270.3133   2   6   0.0012   0.0018   0.0008  -0.0011   0.0005  -0.0001   0.00    1.3
2019 289021.00  -2267128.2214   5009430.0136   3221270.6660   2   5   0.0015   0.0023   0.0009  -0.0014   0.0006  -0.0002   1.00    1.3
2019 289022.00  -2267126.7594   5009430.4206   3221271.1103   2   5   0.0014   0.0022   0.0009  -0.0014   0.0006  -0.0002   2.00    1.2
2019 289023.00  -2267125.2558   5009430.8874   3221271.4966   2   5   0.0014   0.0021   0.0008  -0.0013   0.0006  -0.0002   3.00    1.1
2019 289024.00  -2267123.8352   5009431.3907   3221271.6601   2   5   0.0014   0.0021   0.0008  -0.0013   0.0005  -0.0002   4.00    1.0
2019 289025.00  -2267122.3855   5009432.0308   3221271.8338   2   5   0.0014   0.0020   0.0008  -0.0013   0.0005  -0.0002   5.00    1.1
2019 289026.00  -2267120.9274   5009432.6078   3221271.8849   2   5   0.0014   0.0020   0.0008  -0.0013   0.0005  -0.0002   6.00    1.0
2019 289027.00  -2267119.4964   5009433.1662   3221272.0408   2   5   0.0014   0.0019   0.0008  -0.0013   0.0005  -0.0002   7.00    1.0
2019 289028.00  -2267118.0155   5009433.7359   3221272.1237   2   5   0.0014   0.0019   0.0008  -0.0013   0.0005  -0.0002   8.00    1.0
2019 289029.00  -2267116.6172   5009434.4439   3221272.2374   2   5   0.0014   0.0019   0.0008  -0.0013   0.0005  -0.0002   9.00    1.0
2019 289030.00  -2267115.0682   5009434.9520   3221272.1983   2   5   0.0013   0.0018   0.0008  -0.0011   0.0005  -0.0001   0.00    1.0
2019 289031.00  -2267113.4867   5009435.5789   3221272.0804   2   5   0.0015   0.0023   0.0009  -0.0014   0.0006  -0.0002   1.00    1.1
2019 289032.00  -2267112.3225   5009436.5347   3221271.9654   2   6   0.0013   0.0019   0.0008  -0.0012   0.0005  -0.0002   2.00    1.1
2019 289033.00  -2267110.9674   5009437.1904   3221271.7281   2   6   0.0013   0.0018   0.0008  -0.0011   0.0005  -0.0002   3.00    1.1
2019 289034.00  -2267109.6599   5009437.9286   3221271.4565   2   6   0.0012   0.0018   0.0008  -0.0011   0.0005  -0.0002   4.00    1.0
2019 289035.00  -2267108.3452   5009438.7681   3221271.2099   2   6   0.0012   0.0018   0.0008  -0.0011   0.0005  -0.0002   5.00    1.1
2019 289036.00  -2267107.0457   5009439.8976   3221270.8959   2   6   0.0012   0.0017   0.0008  -0.0011   0.0005  -0.0001   6.00    1.2
2019 289037.00  -2267106.0115   5009440.6418   3221270.4763   2   6   0.0012   0.0017   0.0008  -0.0011   0.0005  -0.0001   7.00    1.2
2019 289038.00  -2267105.0018   5009441.3993   3221269.8995   2   6   0.0012   0.0017   0.0008  -0.0011   0.0005  -0.0001   8.00    1.2
2019 289039.00  -2267103.9311   5009442.2198   3221269.3472   2   6   0.0012   0.0017   0.0008  -0.0011   0.0005  -0.0001   9.00    1.3
2019 289040.00  -2267102.7468   5009443.1999   3221268.6943   2   6   0.0012   0.0017   0.0008  -0.0011   0.0005  -0.0001   0.00    1.4
2019 289041.00  -2267101.5870   5009444.0623   3221268.0868   2   6   0.0013   0.0019   0.0009  -0.0011   0.0005  -0.0002   1.00    1.5
2019 289042.00  -2267100.6554   5009444.9132   3221267.3644   2   6   0.0012   0.0018   0.0008  -0.0011   0.0005  -0.0002   2.00    1.5
2019 289043.00  -2267099.6997   5009445.7338   3221266.7630   2   6   0.0012   0.0018   0.0008  -0.0011   0.0005  -0.0002   3.00    1.5
2019 289044.00  -2267098.8178   5009446.4753   3221266.1546   2   6   0.0012   0.0018   0.0008  -0.0011   0.0005  -0.0002   4.00    1.5
2019 289045.00  -2267097.8626   5009447.5534   3221265.5043   2   6   0.0013   0.0018   0.0008  -0.0011   0.0005  -0.0002   5.00    1.8
2019 289046.00  -2267096.9083   5009448.4634   3221264.6824   2   6   0.0012   0.0017   0.0008  -0.0011   0.0005  -0.0001   6.00    1.8
2019 289047.00  -2267095.9403   5009449.4643   3221263.7779   2   6   0.0012   0.0017   0.0008  -0.0011   0.0005  -0.0001   7.00    1.8
2019 289048.00  -2267095.0663   5009450.4384   3221262.9084   2   6   0.0012   0.0017   0.0008  -0.0011   0.0005  -0.0001   8.00    1.7
2019 289049.00  -2267094.2994   5009451.3354   3221261.9814   2   6   0.0012   0.0017   0.0008  -0.0011   0.0005  -0.0001   9.00    1.7
2019 289050.00  -2267093.4410   5009452.2390   3221261.0073   2   6   0.0012   0.0017   0.0008  -0.0010   0.0005  -0.0001   0.00    1.6
2019 289051.00  -2267092.7239   5009453.2648   3221259.9834   2   6   0.0012   0.0018   0.0009  -0.0011   0.0005  -0.0002   1.00    1.5
2019 289052.00  -2267092.1906   5009454.1495   3221258.9447   2   6   0.0012   0.0018   0.0008  -0.0011   0.0005  -0.0002   2.00    1.5
2019 289053.00  -2267091.4859   5009455.0924   3221257.9220   2   6   0.0012   0.0018   0.0008  -0.0011   0.0005  -0.0002   3.00    1.4
2019 289054.00  -2267090.8468   5009456.0330   3221256.9171   2   6   0.0012   0.0017   0.0008  -0.0011   0.0005  -0.0001   4.00    1.4
2019 289055.00  -2267090.2777   5009456.9745   3221255.8421   2   6   0.0012   0.0017   0.0008  -0.0011   0.0005  -0.0001   5.00    1.3
2019 289056.00  -2267089.5763   5009457.9919   3221254.7820   2   6   0.0012   0.0017   0.0008  -0.0011   0.0005  -0.0001   6.00    1.2
2019 289057.00  -2267089.1004   5009458.8861   3221253.7722   2   6   0.0012   0.0017   0.0008  -0.0011   0.0005  -0.0001   7.00    1.2
2019 289058.00  -2267088.8719   5009459.8262   3221252.4371   2   6   0.0012   0.0017   0.0008  -0.0011   0.0005  -0.0001   8.00    1.2
2019 289059.00  -2267088.6473   5009460.8039   3221251.1472   2   6   0.0012   0.0017   0.0008  -0.0011   0.0005  -0.0001   9.00    1.2
2019 289060.00  -2267088.3665   5009461.6060   3221249.8950   2   6   0.0012   0.0017   0.0008  -0.0010   0.0005  -0.0001   0.00    1.1
2019 289061.00  -2267088.1137   5009462.5810   3221248.6376   2   6   0.0012   0.0018   0.0008  -0.0011   0.0005  -0.0002   1.00    1.1
2019 289062.00  -2267088.0562   5009463.3933   3221247.3627   2   6   0.0012   0.0018   0.0008  -0.0011   0.0005  -0.0002   2.00    1.1
2019 289063.00  -2267088.0944   5009464.2138   3221246.0635   2   6   0.0012   0.0018   0.0008  -0.0011   0.0005  -0.0002   3.00    1.1
2019 289064.00  -2267088.0570   5009464.9715   3221244.8425   2   6   0.0012   0.0017   0.0008  -0.0011   0.0005  -0.0001   4.00    1.0
2019 289065.00  -2267088.0088   5009465.7298   3221243.5695   2   6   0.0012   0.0017   0.0008  -0.0011   0.0005  -0.0001   5.00    1.0
2019 289066.00  -2267088.0797   5009466.4148   3221242.3853   2   6   0.0012   0.0017   0.0008  -0.0011   0.0005  -0.0001   6.00    1.0
2019 289067.00  -2267088.3354   5009467.2247   3221241.0976   2   6   0.0012   0.0017   0.0008  -0.0011   0.0005  -0.0001   7.00    1.0
2019 289068.00  -2267088.4821   5009467.9313   3221239.8895   2   6   0.0012   0.0017   0.0008  -0.0011   0.0005  -0.0001   8.00    1.0
2019 289069.00  -2267088.6592   5009468.5524   3221238.6506   2   6   0.0012   0.0017   0.0008  -0.0011   0.0005  -0.0001   9.00    1.0
2019 289070.00  -2267088.8812   5009469.3512   3221237.4494   2   6   0.0012   0.0017   0.0008  -0.0011   0.0005  -0.0001   0.00    1.0
2019 289071.00  -2267089.0282   5009469.9749   3221236.5514   2   6   0.0013   0.0019   0.0008  -0.0012   0.0005  -0.0002   1.00    1.0
2019 289072.00  -2267089.2068   5009470.3732   3221235.4428   2   6   0.0013   0.0020   0.0008  -0.0012   0.0005  -0.0002   2.00    1.0
2019 289073.00  -2267089.4680   5009471.1631   3221234.2174   2   6   0.0012   0.0018   0.0008  -0.0011   0.0005  -0.0002   3.00    1.1
2019 289074.00  -2267089.6891   5009471.9289   3221232.9198   2   6   0.0012   0.0018   0.0008  -0.0011   0.0005  -0.0001   4.00    1.1
2019 289075.00  -2267089.9153   5009472.6451   3221231.6341   2   6   0.0012   0.0017   0.0008  -0.0011   0.0005  -0.0001   5.00    1.1
2019 289076.00  -2267090.1604   5009473.3773   3221230.3048   2   6   0.0012   0.0017   0.0008  -0.0011   0.0005  -0.0001   6.00    1.1
2019 289077.00  -2267090.3528   5009474.1750   3221228.9553   2   6   0.0012   0.0017   0.0008  -0.0011   0.0005  -0.0001   7.00    1.1
2019 289078.00  -2267090.5933   5009474.9461   3221227.6094   2   6   0.0012   0.0017   0.0008  -0.0011   0.0005  -0.0001   8.00    1.0
2019 289079.00  -2267090.8299   5009475.6668   3221226.2978   2   6   0.0012   0.0017   0.0008  -0.0011   0.0005  -0.0001   9.00    1.0
2019 289080.00  -2267091.1673   5009476.4702   3221224.8867   2   6   0.0012   0.0017   0.0008  -0.0011   0.0005  -0.0001   0.00    1.1
2019 289081.00  -2267091.4085   5009477.2332   3221223.4993   2   6   0.0012   0.0018   0.0009  -0.0011   0.0005  -0.0002   1.00    1.1
2019 289082.00  -2267091.7247   5009477.8665   3221222.1748   2   6   0.0012   0.0018   0.0008  -0.0011   0.0005  -0.0002   2.00    1.1
2019 289083.00  -2267092.0376   5009478.3154   3221220.8437   2   6   0.0012   0.0017   0.0008  -0.0011   0.0005  -0.0001   3.00    1.1
2019 289084.00  -2267092.4467   5009479.1187   3221219.4605   2   6   0.0012   0.0017   0.0008  -0.0011   0.0005  -0.0001   4.00    1.1
2019 289085.00  -2267092.7624   5009479.8200   3221218.0561   2   6   0.0012   0.0017   0.0008  -0.0011   0.0005  -0.0001   5.00    1.1
2019 289086.00  -2267093.1263   5009480.4884   3221216.6952   2   6   0.0012   0.0017   0.0009  -0.0011   0.0005  -0.0001   6.00    1.0
2019 289087.00  -2267093.6113   5009481.3141   3221215.2820   2   6   0.0012   0.0017   0.0008  -0.0011   0.0005  -0.0001   7.00    1.0
2019 289088.00  -2267094.0794   5009482.1992   3221213.8452   2   6   0.0012   0.0017   0.0008  -0.0011   0.0005  -0.0001   8.00    1.1
2019 289089.00  -2267094.5246   5009483.1360   3221212.3221   2   6   0.0012   0.0017   0.0008  -0.0011   0.0005  -0.0001   9.00    1.1
2019 289090.00  -2267094.7774   5009484.0647   3221210.8454   2   6   0.0012   0.0016   0.0008  -0.0010   0.0005  -0.0001   0.00    1.1
2019 289091.00  -2267094.8010   5009484.9551   3221209.5813   2   6   0.0012   0.0018   0.0009  -0.0011   0.0005  -0.0002   1.00    1.1
2019 289092.00  -2267094.9147   5009485.7160   3221208.3676   2   6   0.0012   0.0018   0.0009  -0.0011   0.0005  -0.0001   2.00    1.1
2019 289093.00  -2267095.2643   5009486.1495   3221207.0215   2   6   0.0012   0.0017   0.0009  -0.0010   0.0005  -0.0001   3.00    1.1
2019 289094.00  -2267095.6873   5009486.9735   3221205.5977   2   6   0.0012   0.0017   0.0009  -0.0010   0.0005  -0.0001   4.00    1.1
2019 289095.00  -2267096.0147   5009487.6618   3221204.2379   2   6   0.0012   0.0017   0.0009  -0.0010   0.0005  -0.0001   5.00    1.1
2019 289096.00  -2267096.3266   5009488.2279   3221202.9356   2   5   0.0012   0.0017   0.0009  -0.0010   0.0005  -0.0001   6.00    1.1
2019 289097.00  -2267096.6415   5009489.0069   3221201.5646   2   5   0.0012   0.0017   0.0009  -0.0010   0.0005  -0.0001   7.00    1.1
2019 289098.00  -2267096.9438   5009489.7343   3221200.2531   2   5   0.0012   0.0017   0.0009  -0.0011   0.0005  -0.0001   8.00    1.1
2019 289099.00  -2267097.3284   5009490.3180   3221198.9141   2   5   0.0012   0.0017   0.0009  -0.0011   0.0005  -0.0001   9.00    1.1
2019 289100.00  -2267097.6313   5009491.0490   3221197.4953   2   5   0.0012   0.0016   0.0010  -0.0010   0.0005  -0.0001   0.00    1.1
2019 289101.00  -2267097.9925   5009492.0796   3221196.4207   2   5   0.0012   0.0017   0.0011  -0.0010   0.0005  -0.0000   1.00    1.4
2019 289102.00  -2267098.3720   5009493.0080   3221195.3281   2   5   0.0012   0.0017   0.0011  -0.0010   0.0005  -0.0000   2.00    1.2
2019 289103.00  -2267098.6702   5009493.8297   3221193.9877   2   5   0.0012   0.0017   0.0011  -0.0010   0.0004   0.0000   3.00    1.1
2019 289104.00  -2267098.9093   5009494.4207   3221192.6337   2   5   0.0013   0.0017   0.0010  -0.0011   0.0004   0.0001   4.00    1.1
2019 289105.00  -2267099.0743   5009494.9401   3221191.3419   2   5   0.0014   0.0018   0.0010  -0.0012   0.0003   0.0001   5.00    1.1
2019 289106.00  -2267100.9131   5009496.9206   3221189.6668   2   5   0.0004   0.0010   0.0010  -0.0003   0.0005  -0.0001   6.00    1.0
2019 289107.00  -2267101.0782   5009497.5925   3221188.3052   2   5   0.0004   0.0010   0.0010  -0.0003   0.0005  -0.0001   7.00    1.0
2019 289108.00  -2267101.3596   5009498.3378   3221186.8508   2   5   0.0004   0.0010   0.0011  -0.0003   0.0005  -0.0001   8.00    1.0
2019 289109.00  -2267101.7167   5009498.9919   3221185.6102   2   5   0.0004   0.0010   0.0010  -0.0003   0.0005  -0.0001   9.00    1.0
2019 289110.00  -2267101.8677   5009499.4746   3221184.2369   2   5   0.0004   0.0009   0.0009  -0.0003   0.0005  -0.0001   0.00    1.0
2019 289111.00  -2267101.9545   5009499.8194   3221182.5685   2   5   0.0005   0.0012   0.0013  -0.0004   0.0006  -0.0002   1.00    1.0
2019 289112.00  -2267103.3791   5009501.2905   3221181.6863   2   4   0.0006   0.0012   0.0016  -0.0004   0.0007  -0.0002   2.00    1.7
2019 289113.00  -2267103.6865   5009501.9830   3221180.4633   2   4   0.0005   0.0011   0.0015  -0.0004   0.0007  -0.0002   3.00    1.6
2019 289114.00  -2267104.0400   5009502.6416   3221179.2497   2   5   0.0004   0.0011   0.0013  -0.0003   0.0006  -0.0001   4.00    1.6
2019 289115.00  -2267104.5033   5009503.6562   3221177.9457   2   4   0.0005   0.0011   0.0014  -0.0003   0.0006  -0.0002   5.00    1.6
2019 289116.00  -2267104.9530   5009504.3303   3221176.6390   2   4   0.0004   0.0010   0.0014  -0.0003   0.0006  -0.0002   6.00    1.5
2019 289117.00  -2267105.2933   5009504.8425   3221175.3899   2   4   0.0004   0.0010   0.0013  -0.0003   0.0006  -0.0002   7.00    1.5
2019 289118.00  -2267105.3972   5009505.2479   3221174.8339   2   4   0.0004   0.0010   0.0013  -0.0003   0.0006  -0.0002   8.00    1.5
2019 289119.00  -2267105.4928   5009505.7132   3221174.2189   2   4   0.0004   0.0010   0.0013  -0.0003   0.0006  -0.0002   9.00    1.4
2019 289120.00  -2267105.6467   5009506.3751   3221173.0512   2   4   0.0004   0.0009   0.0010  -0.0003   0.0005  -0.0001   0.00    1.4
2019 289121.00  -2267106.0097   5009507.1614   3221171.5628   2   4   0.0005   0.0012   0.0016  -0.0004   0.0007  -0.0002   1.00    1.4
2019 289122.00  -2267106.4313   5009507.7386   3221170.3172   2   4   0.0005   0.0012   0.0016  -0.0004   0.0007  -0.0002   2.00    1.1
2019 289123.00  -2267106.7344   5009508.3546   3221169.1302   2   4   0.0005   0.0011   0.0015  -0.0004   0.0007  -0.0002   3.00    1.1
2019 289124.00  -2267107.1339   5009508.8903   3221167.8999   2   4   0.0005   0.0011   0.0015  -0.0004   0.0007  -0.0002   4.00    1.1
2019 289125.00  -2267107.6978   5009509.6686   3221166.5161   2   4   0.0005   0.0011   0.0014  -0.0003   0.0006  -0.0002   5.00    1.1
2019 289126.00  -2267108.2224   5009510.1926   3221165.2241   2   4   0.0004   0.0010   0.0014  -0.0003   0.0006  -0.0002   6.00    1.1
2019 289127.00  -2267108.8118   5009510.7459   3221163.9536   2   4   0.0004   0.0010   0.0013  -0.0003   0.0006  -0.0002   7.00    1.1
2019 289128.00  -2267109.4182   5009511.3374   3221162.6383   2   4   0.0004   0.0010   0.0013  -0.0003   0.0006  -0.0002   8.00    1.1
2019 289129.00  -2267109.9974   5009511.9248   3221161.3417   2   4   0.0004   0.0010   0.0013  -0.0003   0.0006  -0.0002   9.00    1.1
2019 289130.00  -2267110.3473   5009512.5198   3221159.9512   2   4   0.0004   0.0010   0.0010  -0.0003   0.0005  -0.0001   0.00    1.1
2019 289131.00  -2267110.8156   5009513.3321   3221158.4665   2   4   0.0005   0.0012   0.0016  -0.0004   0.0007  -0.0003   1.00    1.1
2019 289132.00  -2267111.5376   5009513.9899   3221157.6038   2   5   0.0005   0.0011   0.0011  -0.0004   0.0006  -0.0001   2.00    1.1
2019 289133.00  -2267112.2679   5009514.2190   3221155.9853   2   4   0.0005   0.0011   0.0015  -0.0004   0.0007  -0.0002   3.00    1.1
2019 289134.00  -2267113.1566   5009514.6823   3221154.9386   2   5   0.0005   0.0010   0.0010  -0.0003   0.0005  -0.0001   4.00    1.1
2019 289135.00  -2267114.0447   5009515.0615   3221153.6682   2   5   0.0004   0.0010   0.0010  -0.0003   0.0005  -0.0001   5.00    1.1
2019 289136.00  -2267114.9683   5009515.5650   3221152.2774   2   5   0.0004   0.0010   0.0009  -0.0003   0.0005  -0.0001   6.00    1.1
2019 289137.00  -2267115.9638   5009515.7500   3221151.1314   2   5   0.0004   0.0010   0.0009  -0.0003   0.0005  -0.0001   7.00    1.1
2019 289138.00  -2267117.0280   5009515.9113   3221150.0962   2   5   0.0004   0.0010   0.0009  -0.0003   0.0005  -0.0001   8.00    1.1
2019 289139.00  -2267117.8237   5009515.9020   3221149.1154   2   5   0.0004   0.0010   0.0009  -0.0003   0.0005  -0.0001   9.00    1.1
2019 289140.00  -2267118.7872   5009516.3119   3221147.9649   2   5   0.0004   0.0009   0.0009  -0.0003   0.0004  -0.0001   0.00    1.0
2019 289141.00  -2267119.8341   5009516.6738   3221146.9033   2   5   0.0005   0.0012   0.0011  -0.0004   0.0006  -0.0001   1.00    1.0
2019 289142.00  -2267121.0062   5009516.7280   3221145.9405   2   5   0.0005   0.0011   0.0010  -0.0004   0.0006  -0.0001   2.00    1.0
2019 289143.00  -2267122.2906   5009516.7554   3221144.9939   2   5   0.0005   0.0011   0.0010  -0.0004   0.0005  -0.0001   3.00    1.0
2019 289144.00  -2267123.4255   5009516.9338   3221143.9029   2   5   0.0005   0.0010   0.0010  -0.0003   0.0005  -0.0001   4.00    1.1
2019 289145.00  -2267124.5116   5009517.0839   3221142.7978   2   5   0.0004   0.0010   0.0010  -0.0003   0.0005  -0.0001   5.00    1.1
2019 289146.00  -2267125.7237   5009517.1762   3221141.7730   2   5   0.0004   0.0010   0.0009  -0.0003   0.0005  -0.0001   6.00    1.1
2019 289147.00  -2267127.0467   5009517.1373   3221140.9148   2   5   0.0004   0.0010   0.0009  -0.0003   0.0005  -0.0001   7.00    1.1
2019 289148.00  -2267128.3383   5009517.0569   3221139.9817   2   5   0.0004   0.0010   0.0009  -0.0003   0.0005  -0.0001   8.00    1.1
2019 289149.00  -2267129.6305   5009516.9833   3221139.1933   2   5   0.0004   0.0010   0.0009  -0.0003   0.0005  -0.0001   9.00    1.1
2019 289150.00  -2267130.9221   5009516.9952   3221138.4227   2   5   0.0004   0.0009   0.0009  -0.0003   0.0005  -0.0001   0.00    1.0
2019 289151.00  -2267132.2486   5009517.0433   3221137.7016   2   5   0.0005   0.0012   0.0011  -0.0004   0.0006  -0.0001   1.00    1.0
2019 289152.00  -2267133.5548   5009516.8039   3221137.0186   2   5   0.0005   0.0011   0.0011  -0.0004   0.0006  -0.0002   2.00    1.0
2019 289153.00  -2267134.9455   5009516.5527   3221136.4098   2   5   0.0005   0.0011   0.0011  -0.0004   0.0006  -0.0002   3.00    1.0
2019 289154.00  -2267136.3533   5009516.2671   3221135.8177   2   5   0.0005   0.0011   0.0011  -0.0003   0.0006  -0.0001   4.00    1.0
2019 289155.00  -2267137.6655   5009515.9463   3221135.1251   2   5   0.0005   0.0010   0.0012  -0.0003   0.0006  -0.0002   5.00    1.1
2019 289156.00  -2267139.0307   5009515.7875   3221134.7096   2   5   0.0004   0.0010   0.0008  -0.0003   0.0004  -0.0001   6.00    1.1
2019 289157.00  -2267140.4149   5009515.5037   3221134.1906   2   5   0.0004   0.0010   0.0008  -0.0003   0.0004  -0.0001   7.00    1.1
2019 289158.00  -2267141.7805   5009515.1294   3221133.8669   2   5   0.0004   0.0009   0.0008  -0.0003   0.0004  -0.0001   8.00    1.1
2019 289159.00  -2267143.1681   5009514.6312   3221133.4529   2   5   0.0004   0.0009   0.0008  -0.0003   0.0004  -0.0001   9.00    1.1
2019 289160.00  -2267144.5629   5009514.3277   3221133.0788   2   5   0.0004   0.0009   0.0007  -0.0003   0.0004  -0.0001   0.00    1.1
2019 289161.00  -2267145.9614   5009514.1735   3221132.8537   2   5   0.0005   0.0012   0.0009  -0.0004   0.0006  -0.0001   1.00    1.1
2019 289162.00  -2267147.3733   5009513.7353   3221132.5617   2   5   0.0005   0.0012   0.0009  -0.0003   0.0006  -0.0001   2.00    1.1
2019 289163.00  -2267148.7314   5009513.2723   3221132.5420   2   5   0.0005   0.0012   0.0010  -0.0003   0.0006  -0.0001   3.00    1.1
2019 289164.00  -2267150.2395   5009512.3588   3221132.2533   2   5   0.0005   0.0010   0.0008  -0.0003   0.0005  -0.0001   4.00    1.0
2019 289165.00  -2267151.7066   5009511.6885   3221132.1832   2   5   0.0004   0.0010   0.0008  -0.0003   0.0004  -0.0001   5.00    1.0
2019 289166.00  -2267153.0939   5009510.9866   3221132.1758   2   5   0.0004   0.0010   0.0008  -0.0003   0.0004  -0.0001   6.00    1.0
2019 289167.00  -2267154.5166   5009510.3064   3221132.1614   2   5   0.0004   0.0010   0.0007  -0.0003   0.0004  -0.0001   7.00    1.0
2019 289168.00  -2267155.9557   5009509.6057   3221132.1929   2   5   0.0004   0.0010   0.0007  -0.0003   0.0004  -0.0001   8.00    1.1
2019 289169.00  -2267157.3749   5009508.7030   3221132.1687   2   5   0.0004   0.0010   0.0007  -0.0003   0.0004  -0.0001   9.00    1.1
2019 289170.00  -2267158.6818   5009508.2449   3221132.4001   2   5   0.0004   0.0009   0.0007  -0.0003   0.0004  -0.0001   0.00    1.1
2019 289171.00  -2267160.0807   5009507.7063   3221132.6881   2   5   0.0005   0.0011   0.0009  -0.0004   0.0005  -0.0001   1.00    1.1
2019 289172.00  -2267161.3753   5009506.9340   3221132.8877   2   5   0.0005   0.0011   0.0008  -0.0004   0.0005  -0.0001   2.00    1.1
2019 289173.00  -2267162.6579   5009506.1158   3221133.1829   2   5   0.0005   0.0010   0.0008  -0.0003   0.0005  -0.0001   3.00    1.1
2019 289174.00  -2267163.9639   5009505.3393   3221133.3942   2   5   0.0005   0.0010   0.0008  -0.0003   0.0004  -0.0001   4.00    1.1
2019 289175.00  -2267165.2840   5009504.5101   3221133.6526   2   5   0.0004   0.0010   0.0008  -0.0003   0.0004  -0.0001   5.00    1.1
2019 289176.00  -2267166.6190   5009503.6718   3221133.9861   2   5   0.0004   0.0010   0.0007  -0.0003   0.0004  -0.0001   6.00    1.1
2019 289177.00  -2267167.8604   5009502.9416   3221134.4332   2   5   0.0004   0.0009   0.0007  -0.0003   0.0004  -0.0001   7.00    1.1
2019 289178.00  -2267169.0009   5009502.1015   3221134.8766   2   5   0.0004   0.0009   0.0007  -0.0003   0.0004  -0.0001   8.00    1.1
2019 289179.00  -2267170.2773   5009501.3264   3221135.2582   2   5   0.0004   0.0009   0.0007  -0.0003   0.0004  -0.0001   9.00    1.1
2019 289180.00  -2267171.3079   5009500.5167   3221135.8332   2   5   0.0004   0.0009   0.0007  -0.0003   0.0004  -0.0001   0.00    1.1
2019 289181.00  -2267172.4457   5009499.8411   3221136.3993   2   5   0.0005   0.0011   0.0009  -0.0004   0.0005  -0.0001   1.00    1.1
2019 289182.00  -2267173.5711   5009498.8943   3221137.0784   2   5   0.0005   0.0011   0.0008  -0.0004   0.0005  -0.0001   2.00    1.1
2019 289183.00  -2267174.6599   5009497.9144   3221137.8270   2   5   0.0005   0.0010   0.0008  -0.0003   0.0005  -0.0001   3.00    1.2
2019 289184.00  -2267175.5665   5009496.9573   3221138.5202   2   5   0.0005   0.0010   0.0008  -0.0003   0.0004  -0.0001   4.00    1.2
2019 289185.00  -2267176.3923   5009496.0057   3221139.3141   2   5   0.0004   0.0010   0.0008  -0.0003   0.0004  -0.0001   5.00    1.2
2019 289186.00  -2267177.3243   5009495.1100   3221140.0541   2   5   0.0004   0.0010   0.0007  -0.0003   0.0004  -0.0001   6.00    1.2
2019 289187.00  -2267178.3189   5009494.1667   3221140.7569   2   5   0.0004   0.0010   0.0007  -0.0003   0.0004  -0.0001   7.00    1.2
2019 289188.00  -2267179.2113   5009493.2376   3221141.5134   2   5   0.0004   0.0009   0.0007  -0.0003   0.0004  -0.0001   8.00    1.1
2019 289189.00  -2267179.9863   5009492.2729   3221142.3632   2   5   0.0004   0.0010   0.0007  -0.0003   0.0004  -0.0001   9.00    1.1
2019 289190.00  -2267180.8094   5009491.5870   3221143.3208   2   5   0.0004   0.0010   0.0007  -0.0003   0.0004  -0.0001   0.00    1.1
2019 289194.00  -2267181.9880   5009488.1322   3221147.9772   2   5   0.0005   0.0011   0.0008  -0.0003   0.0005  -0.0001   4.00    1.1
2019 289195.00  -2267182.3048   5009487.0124   3221148.9208   2   5   0.0005   0.0011   0.0008  -0.0003   0.0005  -0.0001   5.00    1.1
2019 289196.00  -2267182.5031   5009486.2351   3221150.1886   2   5   0.0004   0.0010   0.0008  -0.0003   0.0005  -0.0001   6.00    1.1
2019 289197.00  -2267182.6150   5009485.4623   3221151.3857   2   5   0.0004   0.0011   0.0008  -0.0003   0.0005  -0.0001   7.00    1.1
2019 289198.00  -2267182.8426   5009484.4335   3221152.3539   2   4   0.0004   0.0011   0.0008  -0.0002   0.0005  -0.0000   8.00    1.1
2019 289199.00  -2267183.4569   5009482.0530   3221151.8669   2   5   0.0004   0.0010   0.0007  -0.0003   0.0004  -0.0001   9.00    1.1
2019 289200.00  -2267183.3276   5009481.7851   3221153.3821   2   5   0.0004   0.0009   0.0007  -0.0003   0.0003  -0.0001   0.00    1.1
2019 289201.00  -2267183.1564   5009481.6295   3221155.1092   2   6   0.0006   0.0012   0.0009  -0.0005   0.0005  -0.0001   1.00    1.1
2019 289202.00  -2267182.3750   5009482.2884   3221157.9902   2   5   0.0006   0.0013   0.0010  -0.0004   0.0006  -0.0000   2.00    1.0
2019 289203.00  -2267183.1181   5009480.0671   3221157.4390   2   5   0.0005   0.0011   0.0007  -0.0004   0.0004  -0.0001   3.00    1.0
2019 289204.00  -2267183.1396   5009479.2412   3221158.6383   2   5   0.0005   0.0011   0.0008  -0.0004   0.0004  -0.0001   4.00    1.0
2019 289205.00  -2267183.2135   5009478.4765   3221159.9793   2   5   0.0005   0.0010   0.0007  -0.0004   0.0004  -0.0001   5.00    1.0
2019 289206.00  -2267183.1579   5009477.7562   3221161.1402   2   5   0.0005   0.0010   0.0007  -0.0003   0.0004  -0.0001   6.00    1.0
2019 289207.00  -2267183.1938   5009477.1740   3221162.3386   2   5   0.0004   0.0010   0.0007  -0.0003   0.0004  -0.0001   7.00    1.0
2019 289208.00  -2267183.1694   5009476.6092   3221163.5825   2   5   0.0004   0.0009   0.0007  -0.0003   0.0004  -0.0001   8.00    1.0
2019 289209.00  -2267183.1831   5009475.8984   3221164.7995   2   5   0.0004   0.0009   0.0007  -0.0003   0.0004  -0.0001   9.00    1.0
2019 289210.00  -2267183.0447   5009475.5483   3221166.1820   2   5   0.0004   0.0009   0.0007  -0.0003   0.0003  -0.0001   0.00    1.1
2019 289211.00  -2267182.8350   5009475.2208   3221167.6004   2   5   0.0005   0.0012   0.0009  -0.0004   0.0005  -0.0001   1.00    1.1
2019 289212.00  -2267182.6159   5009474.5271   3221168.7593   2   5   0.0005   0.0011   0.0008  -0.0004   0.0005  -0.0001   2.00    1.1
2019 289213.00  -2267182.2825   5009473.8344   3221169.8925   2   5   0.0006   0.0011   0.0008  -0.0004   0.0004  -0.0001   3.00    1.0
2019 289214.00  -2267181.9636   5009473.2029   3221171.1059   2   5   0.0005   0.0011   0.0008  -0.0004   0.0004  -0.0001   4.00    1.1
2019 289215.00  -2267181.6134   5009472.5658   3221172.2633   2   5   0.0005   0.0010   0.0007  -0.0004   0.0004  -0.0001   5.00    1.0
2019 289216.00  -2267181.3241   5009471.9915   3221173.4985   2   5   0.0005   0.0010   0.0007  -0.0003   0.0004  -0.0001   6.00    1.0
2019 289217.00  -2267180.9900   5009471.3936   3221174.7057   2   5   0.0005   0.0010   0.0007  -0.0003   0.0004  -0.0001   7.00    1.0
2019 289218.00  -2267180.9574   5009469.5508   3221175.6066   1   5   0.0001   0.0002   0.0002  -0.0001   0.0001   0.0000  -2.00    5.2
